{"type": "FeatureCollection", "features": [{"type": "Feature", "geometry": {"type": "Point", "coordinates": [-4.88846287, 40.22461226]}, "properties": {"name": "Alto de Pedro Bernardo", "value": 853}}, {"type": "Feature", "geometry": {"type": "Point", "coordinates": [-4.962172508239746, 40.26786983013153]}, "properties": {"name": "PUERTO DE SERRANILLOS (desde cruce con Puerto Pedro Bernardo)", "value": 949}}, {"type": "Feature", "geometry": {"type": "Point", "coordinates": [-4.980216063559055, 40.27680519036949]}, "properties": {"name": "El Sidrillo", "value": 527}}, {"type": "Feature", "geometry": {"type": "Point", "coordinates": [-4.908703, 40.335771]}, "properties": {"name": "PTO.SERRANILLOS OFICIAL NORTE (DESDE CARTEL ENTRADA SERRANILLOS)", "value": 680}}, {"type": "Feature", "geometry": {"type": "Point", "coordinates": [-4.848339, 40.247596]}, "properties": {"name": "Puerto Mijares por Gavilanes", "value": 371}}, {"type": "Feature", "geometry": {"type": "Point", "coordinates": [-4.933517, 40.440442]}, "properties": {"name": "Alto Navalacruz desde el pueblo", "value": 357}}, {"type": "Feature", "geometry": {"type": "Point", "coordinates": [-4.76821062, 40.28305699]}, "properties": {"name": "Subida Cuartel - Nogalillo", "value": 498}}, {"type": "Feature", "geometry": {"type": "Point", "coordinates": [-4.576538, 40.299274]}, "properties": {"name": "HOMOLOGACION CASILLAS", "value": 244}}, {"type": "Feature", "geometry": {"type": "Point", "coordinates": [-5.006695, 40.313482]}, "properties": {"name": "Puerto El Pico (\u00daltimo Km.)", "value": 650}}, {"type": "Feature", "geometry": {"type": "Point", "coordinates": [-4.601973, 40.438626]}, "properties": {"name": "Jiguer\u00f3n", "value": 379}}]}